{
  "id": 191,
  "name": "Samoa",
  "iso3": "WSM",
  "iso2": "WS",
  "numeric_code": "882",
  "phone_code": "685",
  "capital": "Apia",
  "currency": "WST",
  "currency_name": "Samoan tƒÅlƒÅ",
  "currency_symbol": "SAT",
  "tld": ".ws",
  "native": "Samoa",
  "region": "Oceania",
  "region_id": "5",
  "subregion": "Polynesia",
  "subregion_id": "22",
  "nationality": "Samoan",
  "timezones": [
    {
      "zoneName": "Pacific/Apia",
      "gmtOffset": 50400,
      "gmtOffsetName": "UTC+14:00",
      "abbreviation": "WST",
      "tzName": "West Samoa Time"
    }
  ],
  "translations": {
    "kr": "ÏÇ¨Î™®ÏïÑ",
    "pt-BR": "Samoa",
    "pt": "Samoa",
    "nl": "Samoa",
    "hr": "Samoa",
    "fa": "ÿ≥ÿßŸÖŸàÿ¢",
    "de": "Samoa",
    "es": "Samoa",
    "fr": "Samoa",
    "ja": "„Çµ„É¢„Ç¢",
    "it": "Samoa",
    "cn": "Ëê®Êë©‰∫ö",
    "tr": "Samoa"
  },
  "latitude": "-13.58333333",
  "longitude": "-172.33333333",
  "emoji": "üáºüá∏",
  "emojiU": "U+1F1FC U+1F1F8",
  "states": [
    {
      "id": 4763,
      "name": "A'ana",
      "state_code": "AA",
      "latitude": "-13.89841800",
      "longitude": "-171.97529950",
      "type": null,
      "cities": [
        {
          "id": 130647,
          "name": "Fasito‚Äòouta",
          "latitude": "-13.81163000",
          "longitude": "-171.94063000"
        },
        {
          "id": 130649,
          "name": "Leulumoega",
          "latitude": "-13.82297000",
          "longitude": "-171.96127000"
        },
        {
          "id": 130655,
          "name": "Nofoali‚Äòi",
          "latitude": "-13.82170000",
          "longitude": "-171.95873000"
        },
        {
          "id": 130658,
          "name": "Satapuala",
          "latitude": "-13.83535000",
          "longitude": "-171.97963000"
        }
      ]
    },
    {
      "id": 4761,
      "name": "Aiga-i-le-Tai",
      "state_code": "AL",
      "latitude": "-13.85137910",
      "longitude": "-172.03254010",
      "type": null,
      "cities": [
        {
          "id": 130654,
          "name": "Mulifanua",
          "latitude": "-13.83183000",
          "longitude": "-172.03602000"
        }
      ]
    },
    {
      "id": 4765,
      "name": "Atua",
      "state_code": "AT",
      "latitude": "-13.97870530",
      "longitude": "-171.62542830",
      "type": null,
      "cities": [
        {
          "id": 130646,
          "name": "Falefa",
          "latitude": "-13.88695000",
          "longitude": "-171.58805000"
        },
        {
          "id": 130650,
          "name": "LotofagƒÅ",
          "latitude": "-13.97643000",
          "longitude": "-171.85781000"
        },
        {
          "id": 130651,
          "name": "Lufilufi",
          "latitude": "-13.87449000",
          "longitude": "-171.59857000"
        },
        {
          "id": 130659,
          "name": "Solosolo",
          "latitude": "-13.87504000",
          "longitude": "-171.64181000"
        }
      ]
    },
    {
      "id": 4764,
      "name": "Fa'asaleleaga",
      "state_code": "FA",
      "latitude": "-13.63076380",
      "longitude": "-172.23659810",
      "type": null,
      "cities": []
    },
    {
      "id": 4769,
      "name": "Gaga'emauga",
      "state_code": "GE",
      "latitude": "-13.54286660",
      "longitude": "-172.36688700",
      "type": null,
      "cities": []
    },
    {
      "id": 4771,
      "name": "Gaga'ifomauga",
      "state_code": "GI",
      "latitude": "-13.54680070",
      "longitude": "-172.49693310",
      "type": null,
      "cities": [
        {
          "id": 130653,
          "name": "Matavai",
          "latitude": "-14.03208000",
          "longitude": "-171.64768000"
        },
        {
          "id": 130656,
          "name": "Safotu",
          "latitude": "-13.45132000",
          "longitude": "-172.40177000"
        }
      ]
    },
    {
      "id": 4767,
      "name": "Palauli",
      "state_code": "PA",
      "latitude": "-13.72945790",
      "longitude": "-172.45361150",
      "type": null,
      "cities": [
        {
          "id": 130648,
          "name": "Gataivai",
          "latitude": "-13.77360000",
          "longitude": "-172.38802000"
        },
        {
          "id": 130661,
          "name": "Vailoa",
          "latitude": "-13.75551000",
          "longitude": "-172.30698000"
        }
      ]
    },
    {
      "id": 4762,
      "name": "Satupa'itea",
      "state_code": "SA",
      "latitude": "-13.65382140",
      "longitude": "-172.61592710",
      "type": null,
      "cities": []
    },
    {
      "id": 4770,
      "name": "Tuamasaga",
      "state_code": "TU",
      "latitude": "-13.91635920",
      "longitude": "-171.82243620",
      "type": null,
      "cities": [
        {
          "id": 130643,
          "name": "Afega",
          "latitude": "-13.79726000",
          "longitude": "-171.85308000"
        },
        {
          "id": 130644,
          "name": "Apia",
          "latitude": "-13.83333000",
          "longitude": "-171.76666000"
        },
        {
          "id": 130652,
          "name": "Malie",
          "latitude": "-13.80044000",
          "longitude": "-171.84690000"
        },
        {
          "id": 130660,
          "name": "Vailima",
          "latitude": "-13.86417000",
          "longitude": "-171.76126000"
        },
        {
          "id": 130662,
          "name": "Vaiusu",
          "latitude": "-13.82678000",
          "longitude": "-171.79333000"
        }
      ]
    },
    {
      "id": 4768,
      "name": "Va'a-o-Fonoti",
      "state_code": "VF",
      "latitude": "-13.94709030",
      "longitude": "-171.54318720",
      "type": null,
      "cities": [
        {
          "id": 130657,
          "name": "Samamea",
          "latitude": "-13.93375000",
          "longitude": "-171.53122000"
        }
      ]
    },
    {
      "id": 4766,
      "name": "Vaisigano",
      "state_code": "VS",
      "latitude": "-13.54138270",
      "longitude": "-172.70233830",
      "type": null,
      "cities": [
        {
          "id": 130645,
          "name": "Asau",
          "latitude": "-13.51963000",
          "longitude": "-172.63784000"
        }
      ]
    }
  ]
}